{"collections":[{"name":"Nueva","parkings":[{"id":"13475","title":"Aparcamiento mixto. Brasil","locality":"MADRID","pc":"28020","street":"CALLE GENERAL YAGÜE 11","coordinates":{"latitude":40.45610834965894,"longitude":-3.694131675088486},"description":"Plazas: 226 públicas y 400 para residentes Abierto 24 horas Titularidad: Ayuntamiento de Madrid","users":[{"id":"117973833118225220737","name":"Dennis Heal"},{"id":"115785601687445616629","name":"Ward Plunet"}]},{"id":"13464","title":"Aparcamiento mixto. Felipe II","locality":"MADRID","pc":"28009","street":"CALLE ANTONIA MERCE 5","coordinates":{"latitude":40.42422175692137,"longitude":-3.673433652213169},"description":"Plazas : 1218 públicas y 607 para residentes Plazas : 120 públicas y 125 para residentes Información sobre accesibilidad: No tiene escaleras adaptadas Ascensor de salida a la plaza de Felipe II Aseo accesible (1ª planta) Plazas para minusválidos residentes:23 Abierto 24 horas Admite tarjeta BonoRed Titularidad : Ayuntamiento de Madrid","users":[]}]},{"name":"Nueva 2","parkings":[{"id":"13515","title":"Aparcamiento mixto. General Yagüe","locality":"MADRID","pc":"28020","street":"AVENIDA BRASIL 15","coordinates":{"latitude":40.45673936450418,"longitude":-3.694067405537416},"description":"Plazas: 409 públicas y 717 residentes Abierto 24 horas Titularidad: Ayuntamiento de Madrid","users":[{"id":"115785601687445616629","name":"Ward Plunet"}]}]}],"parkings":[{"id":"13475","title":"Aparcamiento mixto. Brasil","locality":"MADRID","pc":"28020","street":"CALLE GENERAL YAGÜE 11","coordinates":{"latitude":40.45610834965894,"longitude":-3.694131675088486},"description":"Plazas: 226 públicas y 400 para residentes Abierto 24 horas Titularidad: Ayuntamiento de Madrid","users":[{"id":"117973833118225220737","name":"Dennis Heal"},{"id":"115785601687445616629","name":"Ward Plunet"}]},{"id":"13515","title":"Aparcamiento mixto. General Yagüe","locality":"MADRID","pc":"28020","street":"AVENIDA BRASIL 15","coordinates":{"latitude":40.45673936450418,"longitude":-3.694067405537416},"description":"Plazas: 409 públicas y 717 residentes Abierto 24 horas Titularidad: Ayuntamiento de Madrid","users":[{"id":"115785601687445616629","name":"Ward Plunet"}]}]}