{"collections":[{"name":"Nueva","parkings":[{"id":"13470","title":"Aparcamiento mixto. Arquitecto Ribera","locality":"MADRID","pc":"28004","street":"CALLE BARCELO 2","coordinates":{"latitude":40.426687899755734,"longitude":-3.6996173701222492},"description":"Plazas: 318 públicas y 298 para residentes Abierto 24 horas Admite Tarjeta BonoRed Titularidad: Ayuntamiento de Madrid","users":[]},{"id":"7417052","title":"Aparcamiento mixto. Serrano III","locality":"MADRID","pc":"28001","street":"CALLE JORGE JUAN 1","coordinates":{"latitude":40.42446775888825,"longitude":-3.6897747066093993},"description":"Plazas : 261 públicas y 725 para residentes Abierto 24 horas Titularidad : Ayuntamiento de Madrid","users":[{"id":"117826637077711958172","name":"Shawn McClure"},{"id":"115785601687445616629","name":"Ward Plunet"},{"id":"102354824581711724695","name":"Yvonne Melton"}]},{"id":"13494","title":"Aparcamiento para residentes. América Española","locality":"MADRID","pc":"28028","street":"CALLE SANCHO DAVILA 1","coordinates":{"latitude":40.428900028803746,"longitude":-3.662068474281374},"description":"Plazas : 282 Abierto 24 horas Titularidad : Ayuntamiento de Madrid","users":[]},{"id":"19060","title":"Aparcamiento para residentes. Aluche","locality":"MADRID","pc":"28047","street":"CALLE ILLESCAS 151","coordinates":{"latitude":40.392629719913494,"longitude":-3.7588147232323994},"description":"Plazas : 208 Abierto 24 horas Titularidad : Ayuntamiento de Madrid","users":[{"id":"102590783040593125503","name":"Juanjo Marín"},{"id":"117973833118225220737","name":"Dennis Heal"},{"id":"108086881826934773478","name":"Alex Mackenzie-Torres"}]}]},{"name":"Nueva 2","parkings":[{"id":"19060","title":"Aparcamiento para residentes. Aluche","locality":"MADRID","pc":"28047","street":"CALLE ILLESCAS 151","coordinates":{"latitude":40.392629719913494,"longitude":-3.7588147232323994},"description":"Plazas : 208 Abierto 24 horas Titularidad : Ayuntamiento de Madrid","users":[{"id":"102590783040593125503","name":"Juanjo Marín"},{"id":"117973833118225220737","name":"Dennis Heal"},{"id":"108086881826934773478","name":"Alex Mackenzie-Torres"}]}]}],"parkings":[{"id":"7417052","title":"Aparcamiento mixto. Serrano III","locality":"MADRID","pc":"28001","street":"CALLE JORGE JUAN 1","coordinates":{"latitude":40.42446775888825,"longitude":-3.6897747066093993},"description":"Plazas : 261 públicas y 725 para residentes Abierto 24 horas Titularidad : Ayuntamiento de Madrid","users":[{"id":"117826637077711958172","name":"Shawn McClure"},{"id":"115785601687445616629","name":"Ward Plunet"},{"id":"102354824581711724695","name":"Yvonne Melton"}]},{"id":"19060","title":"Aparcamiento para residentes. Aluche","locality":"MADRID","pc":"28047","street":"CALLE ILLESCAS 151","coordinates":{"latitude":40.392629719913494,"longitude":-3.7588147232323994},"description":"Plazas : 208 Abierto 24 horas Titularidad : Ayuntamiento de Madrid","users":[{"id":"102590783040593125503","name":"Juanjo Marín"},{"id":"117973833118225220737","name":"Dennis Heal"},{"id":"108086881826934773478","name":"Alex Mackenzie-Torres"}]}]}